{
"type": "FeatureCollection",
"crs": { "type": "name", "properties": { "name": "urn:ogc:def:crs:OGC:1.3:CRS84" } },
"features": [
{ "type": "Feature", "properties": { "Name": "BARQUILLO (MEF03-101296)" }, "geometry": { "type": "Point", "coordinates": [ -72.970091666666661, -41.56678055555556, 0.0 ] } },
{ "type": "Feature", "properties": { "Name": "BOLADOS (MEF04-110454)" }, "geometry": { "type": "Point", "coordinates": [ -74.187281327288744, -44.347083794996138, 0.0 ] } },
{ "type": "Feature", "properties": { "Name": "CONCOTO (EA48 - 110466)" }, "geometry": { "type": "Point", "coordinates": [ -73.806102235445593, -44.162665948685728, 0.0 ] } },
{ "type": "Feature", "properties": { "Name": "CANAL PEREZ NORTE (EA41 - 110523)" }, "geometry": { "type": "Point", "coordinates": [ -73.848929657303771, -44.148979515650403, 0.0 ] } },
{ "type": "Feature", "properties": { "Name": "ELENA (EA40 - 110510)" }, "geometry": { "type": "Point", "coordinates": [ -73.812436518208685, -44.254563833099823, 0.0 ] } },
{ "type": "Feature", "properties": { "Name": "GUAITECAS 2 (EA45 - 110704)" }, "geometry": { "type": "Point", "coordinates": [ -73.874494594382156, -43.921178330200952, 0.0 ] } },
{ "type": "Feature", "properties": { "Name": "HUYAR (MEF10-101370)" }, "geometry": { "type": "Point", "coordinates": [ -73.54889595836417, -42.388714233262689, 0.0 ] } },
{ "type": "Feature", "properties": { "Name": "ISLA PELADA (MEF11-100991)" }, "geometry": { "type": "Point", "coordinates": [ -72.498351983291172, -42.062969808944892, 0.0 ] } },
{ "type": "Feature", "properties": { "Name": "ISLA SANCHEZ (EA20 - 110824)" }, "geometry": { "type": "Point", "coordinates": [ -73.570993061627689, -44.126519700615539, 0.0 ] } },
{ "type": "Feature", "properties": { "Name": "JORGE (MEF01-110813)" }, "geometry": { "type": "Point", "coordinates": [ -74.029808333333335, -44.77855, 0.0 ] } },
{ "type": "Feature", "properties": { "Name": "MARGARITA (MEF02-110550)" }, "geometry": { "type": "Point", "coordinates": [ -74.243677792306201, -44.202395947792859, 0.0 ] } },
{ "type": "Feature", "properties": { "Name": "MAY (MEF04-110513)" }, "geometry": { "type": "Point", "coordinates": [ -74.24048534297556, -44.238504359715627, 0.0 ] } },
{ "type": "Feature", "properties": { "Name": "PLAYA BONITA (MEF04-110592)" }, "geometry": { "type": "Point", "coordinates": [ -74.286809947711831, -44.211406441816379, 0.0 ] } },
{ "type": "Feature", "properties": { "Name": "SOLEDAD (MEF07-110384)" }, "geometry": { "type": "Point", "coordinates": [ -73.845444444444439, -45.45985, 0.0 ] } },
{ "type": "Feature", "properties": { "Name": "TEUQUELIN (MEF05-101308)" }, "geometry": { "type": "Point", "coordinates": [ -73.253786111111111, -42.466391666666667, 0.0 ] } },
{ "type": "Feature", "properties": { "Name": "VALVERDE 4 (EA39 - 110944)" }, "geometry": { "type": "Point", "coordinates": [ -73.766568119716155, -44.3328358764551, 0.0 ] } },
{ "type": "Feature", "properties": { "Name": "VALVERDE 6 (EA46 - 110397)" }, "geometry": { "type": "Point", "coordinates": [ -73.912186949322503, -44.282296424386352, 0.0 ] } },
{ "type": "Feature", "properties": { "Name": "VERDUGO 3 (EA49 - 110941)" }, "geometry": { "type": "Point", "coordinates": [ -73.723382757227611, -44.159106468416446, 0.0 ] } },
{ "type": "Feature", "properties": { "Name": "CHALACAYEC (MEF10-110799)" }, "geometry": { "type": "Point", "coordinates": [ -73.770797222222228, -44.981886111111123, 0.0 ] } },
{ "type": "Feature", "properties": { "Name": "LLAGUEPE (MEF14-101679)" }, "geometry": { "type": "Point", "coordinates": [ -72.475958333333338, -41.721683333333338, 0.0 ] } },
{ "type": "Feature", "properties": { "Name": "ACANTILADA (ANT03-110046)" }, "geometry": { "type": "Point", "coordinates": [ -72.883355555555568, -45.407344444444448, 0.0 ] } },
{ "type": "Feature", "properties": { "Name": "CARMEN (ANT09-110954)" }, "geometry": { "type": "Point", "coordinates": [ -72.853383333333326, -45.449397222222217, 0.0 ] } },
{ "type": "Feature", "properties": { "Name": "COLORADA (EA31-110928)" }, "geometry": { "type": "Point", "coordinates": [ -73.353508333333323, -45.364597222222223, 0.0 ] } },
{ "type": "Feature", "properties": { "Name": "ISLOTE BONITO (ANT06-110453)" }, "geometry": { "type": "Point", "coordinates": [ -73.234718546017447, -45.298582222097103, 0.0 ] } },
{ "type": "Feature", "properties": { "Name": "JESUS 3 (EA28-110865)" }, "geometry": { "type": "Point", "coordinates": [ -73.902633333333341, -44.74624166666667, 0.0 ] } },
{ "type": "Feature", "properties": { "Name": "PUNTA MANO (ANT05-110579)" }, "geometry": { "type": "Point", "coordinates": [ -72.89832777777778, -45.421663888888887, 0.0 ] } },
{ "type": "Feature", "properties": { "Name": "PUNTA MORRO (ANT08-110509)" }, "geometry": { "type": "Point", "coordinates": [ -73.27772777777777, -45.31605555555555, 0.0 ] } },
{ "type": "Feature", "properties": { "Name": "PUNTA PETISO (ANT07-110453)" }, "geometry": { "type": "Point", "coordinates": [ -73.196972222222229, -45.290488888888881, 0.0 ] } },
{ "type": "Feature", "properties": { "Name": "PUNTILLA (ANT04-110047)" }, "geometry": { "type": "Point", "coordinates": [ -72.855191666666656, -45.387408333333333, 0.0 ] } },
{ "type": "Feature", "properties": { "Name": "RODRIGUEZ (EA15-110823)" }, "geometry": { "type": "Point", "coordinates": [ -73.501211111111118, -45.372325, 0.0 ] } },
{ "type": "Feature", "properties": { "Name": "ANGOSTURA (EA50-110059)" }, "geometry": { "type": "Point", "coordinates": [ -72.888216666666679, -44.628425, 0.0 ] } },
{ "type": "Feature", "properties": { "Name": "AMPARO GRANDE (EA24-110068)" }, "geometry": { "type": "Point", "coordinates": [ -72.911886111111116, -44.772111111111109, 0.0 ] } },
{ "type": "Feature", "properties": { "Name": "AVELLANO (EA33-110217)" }, "geometry": { "type": "Point", "coordinates": [ -73.181619444444451, -44.05810833333333, 0.0 ] } },
{ "type": "Feature", "properties": { "Name": "BAHIA ANITA (EA26-110742)" }, "geometry": { "type": "Point", "coordinates": [ -73.027591666666666, -44.90045, 0.0 ] } },
{ "type": "Feature", "properties": { "Name": "CANALAD 5 (EA42-110205)" }, "geometry": { "type": "Point", "coordinates": [ -73.153936111111122, -44.559016666666658, 0.0 ] } },
{ "type": "Feature", "properties": { "Name": "CANALAD 6 (EA30-110595)" }, "geometry": { "type": "Point", "coordinates": [ -73.300422222222224, -44.560022222222223, 0.0 ] } },
{ "type": "Feature", "properties": { "Name": "CANAL REFUGIO (EA34-110270)" }, "geometry": { "type": "Point", "coordinates": [ -73.125902777777767, -44.016833333333331, 0.0 ] } },
{ "type": "Feature", "properties": { "Name": "CATALINA (EA21-110131)" }, "geometry": { "type": "Point", "coordinates": [ -72.967593439591582, -44.815946389511822, 0.0 ] } },
{ "type": "Feature", "properties": { "Name": "ESTERO BLANCO (EA43-110132)" }, "geometry": { "type": "Point", "coordinates": [ -72.878541666666663, -44.658008333333328, 0.0 ] } },
{ "type": "Feature", "properties": { "Name": "GRAFFER (EA17-110069)" }, "geometry": { "type": "Point", "coordinates": [ -72.934525, -44.78605, 0.0 ] } },
{ "type": "Feature", "properties": { "Name": "ESTERO SOTO (EA16-110060)" }, "geometry": { "type": "Point", "coordinates": [ -72.717483333333334, -44.572636111111123, 0.0 ] } },
{ "type": "Feature", "properties": { "Name": "LA LEONA (EA36-110214)" }, "geometry": { "type": "Point", "coordinates": [ -73.109447222222215, -44.046825, 0.0 ] } },
{ "type": "Feature", "properties": { "Name": "MARTA (EA27-110071)" }, "geometry": { "type": "Point", "coordinates": [ -72.999602777777781, -44.836988888888889, 0.0 ] } },
{ "type": "Feature", "properties": { "Name": "MELIMOYU (EA47-110740)" }, "geometry": { "type": "Point", "coordinates": [ -73.116766666666663, -44.058580555555551, 0.0 ] } },
{ "type": "Feature", "properties": { "Name": "PUNTA GONZALEZ (110222)" }, "geometry": { "type": "Point", "coordinates": [ -73.118163888888887, -44.172738888888887, 0.0 ] } },
{ "type": "Feature", "properties": { "Name": "PUNTA GANSO (EA22-110703)" }, "geometry": { "type": "Point", "coordinates": [ -72.768691666666669, -44.758322222222219, 0.0 ] } },
{ "type": "Feature", "properties": { "Name": "SUR PUYUHUAPI (EA23-110839)" }, "geometry": { "type": "Point", "coordinates": [ -73.155233333333342, -44.93857222222222, 0.0 ] } }
]
}
